{"type": "FeatureCollection", "metadata": {"descripcion": "Instalaciones militares de conocimiento público (coordenadas aproximadas)"}, "features": [{"type": "Feature", "geometry": {"type": "Point", "coordinates": [-58.447, -51.823]}, "properties": {"nombre": "BFSAI Mount Pleasant (aérea)", "fuerza": "Royal Air Force", "pais": "Reino Unido", "descripcion": "Base militar extranjera en territorio argentino ocupado (Islas Malvinas)", "extranjera": true, "fuente": "Conocimiento público (ubicación aproximada)"}}, {"type": "Feature", "geometry": {"type": "Point", "coordinates": [-58.43, -51.9]}, "properties": {"nombre": "Mare Harbour / East Cove (naval)", "fuerza": "Royal Navy", "pais": "Reino Unido", "descripcion": "Puerto militar extranjero en territorio argentino ocupado (Islas Malvinas)", "extranjera": true, "fuente": "Conocimiento público (ubicación aproximada)"}}, {"type": "Feature", "geometry": {"type": "Point", "coordinates": [-62.103, -38.894]}, "properties": {"nombre": "Base Naval Puerto Belgrano", "fuerza": "Armada Argentina", "pais": "Argentina", "descripcion": "Principal base naval del país", "extranjera": false, "fuente": "Conocimiento público (ubicación aproximada)"}}, {"type": "Feature", "geometry": {"type": "Point", "coordinates": [-62.169, -38.725]}, "properties": {"nombre": "Base Aeronaval Comandante Espora", "fuerza": "Armada Argentina", "pais": "Argentina", "descripcion": "Principal base de la aviación naval argentina, junto a Puerto Belgrano.", "extranjera": false, "fuente": "Conocimiento público (ubicación aproximada)"}}, {"type": "Feature", "geometry": {"type": "Point", "coordinates": [-57.531, -38.034]}, "properties": {"nombre": "Base Naval Mar del Plata", "fuerza": "Armada Argentina", "pais": "Argentina", "descripcion": "Apostadero de la fuerza de submarinos. Desde aquí zarpó el ARA San Juan en 2017.", "extranjera": false, "fuente": "Conocimiento público (ubicación aproximada)"}}, {"type": "Feature", "geometry": {"type": "Point", "coordinates": [-68.297, -54.819]}, "properties": {"nombre": "Base Naval Ushuaia", "fuerza": "Armada Argentina", "pais": "Argentina", "descripcion": "Base naval más austral del país; apoyo a la proyección antártica y del Atlántico Sur.", "extranjera": false, "fuente": "Conocimiento público (ubicación aproximada)"}}, {"type": "Feature", "geometry": {"type": "Point", "coordinates": [-67.75, -53.778]}, "properties": {"nombre": "Base Aeronaval Almirante Quijada (Río Grande)", "fuerza": "Armada Argentina", "pais": "Argentina", "descripcion": "Base aeronaval en Tierra del Fuego, clave en la vigilancia del Atlántico Sur.", "extranjera": false, "fuente": "Conocimiento público (ubicación aproximada)"}}, {"type": "Feature", "geometry": {"type": "Point", "coordinates": [-69.312, -51.609]}, "properties": {"nombre": "BAM Río Gallegos", "fuerza": "Fuerza Aérea Argentina", "pais": "Argentina", "descripcion": "Base aérea militar; durante 1982 fue base de operaciones hacia Malvinas.", "extranjera": false, "fuente": "Conocimiento público (ubicación aproximada)"}}, {"type": "Feature", "geometry": {"type": "Point", "coordinates": [-67.466, -45.785]}, "properties": {"nombre": "IX Brigada Aérea (Comodoro Rivadavia)", "fuerza": "Fuerza Aérea Argentina", "pais": "Argentina", "descripcion": "Brigada aérea de la Patagonia central.", "extranjera": false, "fuente": "Conocimiento público (ubicación aproximada)"}}, {"type": "Feature", "geometry": {"type": "Point", "coordinates": [-59.25, -37.237]}, "properties": {"nombre": "VI Brigada Aérea (Tandil)", "fuerza": "Fuerza Aérea Argentina", "pais": "Argentina", "descripcion": "Asiento de los cazas interceptores de la Fuerza Aérea.", "extranjera": false, "fuente": "Conocimiento público (ubicación aproximada)"}}]}