{"type": "FeatureCollection", "metadata": {"descripcion": "Instalaciones militares de conocimiento público (coordenadas aproximadas)"}, "features": [{"type": "Feature", "geometry": {"type": "Point", "coordinates": [-58.447, -51.823]}, "properties": {"nombre": "BFSAI Mount Pleasant (aérea)", "fuerza": "Royal Air Force", "pais": "Reino Unido", "nota": "Base militar extranjera en territorio argentino ocupado (Islas Malvinas)", "extranjera": true}}, {"type": "Feature", "geometry": {"type": "Point", "coordinates": [-58.43, -51.9]}, "properties": {"nombre": "Mare Harbour / East Cove (naval)", "fuerza": "Royal Navy", "pais": "Reino Unido", "nota": "Puerto militar extranjero en territorio argentino ocupado (Islas Malvinas)", "extranjera": true}}, {"type": "Feature", "geometry": {"type": "Point", "coordinates": [-62.103, -38.894]}, "properties": {"nombre": "Base Naval Puerto Belgrano", "fuerza": "Armada Argentina", "pais": "Argentina", "nota": "Principal base naval del país", "extranjera": false}}, {"type": "Feature", "geometry": {"type": "Point", "coordinates": [-62.169, -38.725]}, "properties": {"nombre": "Base Aeronaval Comandante Espora", "fuerza": "Armada Argentina", "pais": "Argentina", "nota": "", "extranjera": false}}, {"type": "Feature", "geometry": {"type": "Point", "coordinates": [-57.531, -38.034]}, "properties": {"nombre": "Base Naval Mar del Plata", "fuerza": "Armada Argentina", "pais": "Argentina", "nota": "Fuerza de submarinos", "extranjera": false}}, {"type": "Feature", "geometry": {"type": "Point", "coordinates": [-68.297, -54.819]}, "properties": {"nombre": "Base Naval Ushuaia", "fuerza": "Armada Argentina", "pais": "Argentina", "nota": "", "extranjera": false}}, {"type": "Feature", "geometry": {"type": "Point", "coordinates": [-67.75, -53.778]}, "properties": {"nombre": "Base Aeronaval Almirante Quijada (Río Grande)", "fuerza": "Armada Argentina", "pais": "Argentina", "nota": "", "extranjera": false}}, {"type": "Feature", "geometry": {"type": "Point", "coordinates": [-69.312, -51.609]}, "properties": {"nombre": "BAM Río Gallegos", "fuerza": "Fuerza Aérea Argentina", "pais": "Argentina", "nota": "", "extranjera": false}}, {"type": "Feature", "geometry": {"type": "Point", "coordinates": [-67.466, -45.785]}, "properties": {"nombre": "IX Brigada Aérea (Comodoro Rivadavia)", "fuerza": "Fuerza Aérea Argentina", "pais": "Argentina", "nota": "", "extranjera": false}}, {"type": "Feature", "geometry": {"type": "Point", "coordinates": [-59.25, -37.237]}, "properties": {"nombre": "VI Brigada Aérea (Tandil)", "fuerza": "Fuerza Aérea Argentina", "pais": "Argentina", "nota": "", "extranjera": false}}]}